{
  "cases" : [
    {
      "candidates" : [
        {
          "city" : "Tel Aviv",
          "displayName" : "בית ספר בלפור",
          "objectLat" : 32.06706614,
          "objectLon" : 34.77284228,
          "placeType" : "public_shelter",
          "sourceIdentifier" : "shelters:592-160",
          "sourceName" : "tel-aviv-municipal-shelters"
        },
        {
          "city" : "Tel Aviv",
          "displayName" : "בית ספר בלפור",
          "objectLat" : 32.06734155,
          "objectLon" : 34.77258503,
          "placeType" : "public_shelter",
          "sourceIdentifier" : "shelters:592-2165",
          "sourceName" : "tel-aviv-municipal-shelters"
        }
      ],
      "decision" : "review",
      "id" : "0fba8e0d-edfe-5979-ba08-dfce8f47ee70__a3eb6fd6-9387-5e1a-9d0e-e823d5b226a3",
      "reason" : "near_match_requires_review"
    },
    {
      "candidates" : [
        {
          "city" : "Tel Aviv",
          "displayName" : "בית ספר הגליל",
          "objectLat" : 32.05076112,
          "objectLon" : 34.79594845,
          "placeType" : "public_shelter",
          "sourceIdentifier" : "shelters:592-2125",
          "sourceName" : "tel-aviv-municipal-shelters"
        },
        {
          "city" : "Tel Aviv",
          "displayName" : "בית ספר הגליל",
          "objectLat" : 32.05078031,
          "objectLon" : 34.79557302,
          "placeType" : "public_shelter",
          "sourceIdentifier" : "shelters:592-288",
          "sourceName" : "tel-aviv-municipal-shelters"
        }
      ],
      "decision" : "review",
      "id" : "1a298675-efe2-5061-8668-0be8e60a8f0b__c5835539-9ed6-5ba9-a83b-1a69edc66252",
      "reason" : "near_match_requires_review"
    },
    {
      "candidates" : [
        {
          "city" : "Tel Aviv",
          "displayName" : "בית ספר עירוני ה",
          "objectLat" : 32.09527957,
          "objectLon" : 34.77482502,
          "placeType" : "public_shelter",
          "sourceIdentifier" : "shelters:592-141",
          "sourceName" : "tel-aviv-municipal-shelters"
        },
        {
          "city" : "Tel Aviv",
          "displayName" : "בית ספר עירוני ה",
          "objectLat" : 32.09524307,
          "objectLon" : 34.77443699,
          "placeType" : "public_shelter",
          "sourceIdentifier" : "shelters:592-1960",
          "sourceName" : "tel-aviv-municipal-shelters"
        }
      ],
      "decision" : "review",
      "id" : "40bd3533-d1ee-5271-aa5a-72b459a011f0__a9df6a4e-d804-5a9c-aa94-02aa72069088",
      "reason" : "near_match_requires_review"
    },
    {
      "candidates" : [
        {
          "city" : "Tel Aviv",
          "displayName" : "בית ספר גבריאלי",
          "objectLat" : 32.07510913,
          "objectLon" : 34.77736812,
          "placeType" : "public_shelter",
          "sourceIdentifier" : "shelters:592-2169",
          "sourceName" : "tel-aviv-municipal-shelters"
        },
        {
          "city" : "Tel Aviv",
          "displayName" : "בית ספר גבריאלי",
          "objectLat" : 32.07485694,
          "objectLon" : 34.7775744,
          "placeType" : "public_shelter",
          "sourceIdentifier" : "shelters:592-40",
          "sourceName" : "tel-aviv-municipal-shelters"
        }
      ],
      "decision" : "review",
      "id" : "4b97a663-6c67-5050-b99a-4650ee260439__b8aec26f-5adf-5a47-8b70-708ab2ac1929",
      "reason" : "near_match_requires_review"
    },
    {
      "candidates" : [
        {
          "city" : "Tel Aviv",
          "displayName" : "בית ספר חסן ערפה",
          "objectLat" : 32.04637534,
          "objectLon" : 34.74793705,
          "placeType" : "public_shelter",
          "sourceIdentifier" : "shelters:592-2184",
          "sourceName" : "tel-aviv-municipal-shelters"
        },
        {
          "city" : "Tel Aviv",
          "displayName" : "בית ספר חסן ערפה",
          "objectLat" : 32.04648468,
          "objectLon" : 34.74775561,
          "placeType" : "public_shelter",
          "sourceIdentifier" : "shelters:592-261",
          "sourceName" : "tel-aviv-municipal-shelters"
        }
      ],
      "decision" : "review",
      "id" : "7955a5ec-49e2-537b-bcf8-7c7e08d9ab4d__f4564c6a-6080-5249-8d8d-cf560fc60366",
      "reason" : "near_match_requires_review"
    },
    {
      "candidates" : [
        {
          "city" : "Tel Aviv",
          "displayName" : "בית ספר בעש\"ט",
          "objectLat" : 32.04853948,
          "objectLon" : 34.80609395,
          "placeType" : "public_shelter",
          "sourceIdentifier" : "shelters:592-2129",
          "sourceName" : "tel-aviv-municipal-shelters"
        },
        {
          "city" : "Tel Aviv",
          "displayName" : "בית ספר בעש\"ט",
          "objectLat" : 32.0483804,
          "objectLon" : 34.80623668,
          "placeType" : "public_shelter",
          "sourceIdentifier" : "shelters:592-282",
          "sourceName" : "tel-aviv-municipal-shelters"
        }
      ],
      "decision" : "review",
      "id" : "b9c28335-cff2-5d24-9a3b-6417fb23dd5a__ee3a7cb8-874c-5204-97c1-050e7266c314",
      "reason" : "near_match_requires_review"
    },
    {
      "candidates" : [
        {
          "city" : "Tel Aviv",
          "displayName" : "בית ספר יחד",
          "objectLat" : 32.04673524,
          "objectLon" : 34.79562967,
          "placeType" : "public_shelter",
          "sourceIdentifier" : "shelters:592-120",
          "sourceName" : "tel-aviv-municipal-shelters"
        },
        {
          "city" : "Tel Aviv",
          "displayName" : "בית ספר יחד",
          "objectLat" : 32.04671339,
          "objectLon" : 34.79588329,
          "placeType" : "public_shelter",
          "sourceIdentifier" : "shelters:592-199",
          "sourceName" : "tel-aviv-municipal-shelters"
        }
      ],
      "decision" : "review",
      "id" : "bc2c0f93-3517-54d5-826a-0bbe1ab9b904__f6ed7890-b6d4-5921-8b97-8e3a500e3b14",
      "reason" : "near_match_requires_review"
    },
    {
      "candidates" : [
        {
          "city" : "Tel Aviv",
          "displayName" : "בית ספר גיבורי ישראל",
          "objectLat" : 32.06021315,
          "objectLon" : 34.79615911,
          "placeType" : "public_shelter",
          "sourceIdentifier" : "shelters:592-2138",
          "sourceName" : "tel-aviv-municipal-shelters"
        },
        {
          "city" : "Tel Aviv",
          "displayName" : "בית ספר גיבורי ישראל",
          "objectLat" : 32.06004831,
          "objectLon" : 34.7964764,
          "placeType" : "public_shelter",
          "sourceIdentifier" : "shelters:592-29",
          "sourceName" : "tel-aviv-municipal-shelters"
        }
      ],
      "decision" : "review",
      "id" : "c53ccee8-129a-5127-b972-d1175f2f0c8e__d7c2f4d7-221c-542e-98df-1a179c9d3508",
      "reason" : "near_match_requires_review"
    }
  ],
  "generatedAt" : "2026-03-19T12:05:27.278Z",
  "mergeRuleVersion" : "v1",
  "mergedCanonicalCount" : 553,
  "reviewCaseCount" : 8
}